{"cityid": "101190402", "city": "常熟", "cityEn": "changshu", "country": "中国", "countryEn": "China", "update_time": "2021-03-07 15:03:40", "data": [{"day": "07日（星期日）", "date": "2021-03-07", "week": "星期日", "wea": "小雨转多云", "wea_img": "yun", "wea_day": "小雨", "wea_day_img": "yu", "wea_night": "多云", "wea_night_img": "yun", "tem": "8℃", "tem1": "8℃", "tem2": "6℃", "humidity": "94%", "visibility": "4.7km", "pressure": "1026", "win": ["北风", "东风"], "win_speed": "<3级", "win_meter": "小于12km/h", "sunrise": "06:16", "sunset": "17:59", "air": "32", "air_level": "优", "air_tips": "空气很好，可以外出活动，呼吸新鲜空气，拥抱大自然！", "alarm": {"alarm_type": "", "alarm_level": "", "alarm_content": ""}, "hours": [{"hours": "15时", "wea": "小雨", "wea_img": "yu", "tem": "8", "win": "微风", "win_speed": "10-11级"}, {"hours": "16时", "wea": "小雨", "wea_img": "yu", "tem": "8", "win": "微风", "win_speed": "10-11级"}, {"hours": "17时", "wea": "小雨", "wea_img": "yu", "tem": "7", "win": "微风", "win_speed": "10-11级"}, {"hours": "18时", "wea": "小雨", "wea_img": "yu", "tem": "7", "win": "微风", "win_speed": "10-11级"}, {"hours": "19时", "wea": "小雨", "wea_img": "yu", "tem": "7", "win": "微风", "win_speed": "10-11级"}, {"hours": "20时", "wea": "小雨", "wea_img": "yu", "tem": "7", "win": "微风", "win_speed": "10-11级"}, {"hours": "21时", "wea": "阴", "wea_img": "yin", "tem": "7", "win": "微风", "win_speed": "3-4级"}, {"hours": "22时", "wea": "阴", "wea_img": "yin", "tem": "7", "win": "微风", "win_speed": "3-4级"}, {"hours": "23时", "wea": "多云", "wea_img": "yun", "tem": "7", "win": "微风", "win_speed": "4-5级"}, {"hours": "00时", "wea": "多云", "wea_img": "yun", "tem": "7", "win": "微风", "win_speed": "3-4级"}, {"hours": "01时", "wea": "多云", "wea_img": "yun", "tem": "7", "win": "微风", "win_speed": "3-4级"}, {"hours": "02时", "wea": "多云", "wea_img": "yun", "tem": "7", "win": "微风", "win_speed": "4-5级"}, {"hours": "03时", "wea": "多云", "wea_img": "yun", "tem": "7", "win": "微风", "win_speed": "3-4级"}, {"hours": "04时", "wea": "多云", "wea_img": "yun", "tem": "7", "win": "微风", "win_speed": "3-4级"}, {"hours": "05时", "wea": "多云", "wea_img": "yun", "tem": "7", "win": "微风", "win_speed": "4-5级"}, {"hours": "06时", "wea": "多云", "wea_img": "yun", "tem": "6", "win": "微风", "win_speed": "4-5级"}, {"hours": "07时", "wea": "多云", "wea_img": "yun", "tem": "7", "win": "微风", "win_speed": "4-5级"}, {"hours": "08时", "wea": "多云", "wea_img": "yun", "tem": "7", "win": "微风", "win_speed": "4-5级"}, {"hours": "09时", "wea": "小雨", "wea_img": "yu", "tem": "8", "win": "微风", "win_speed": "4-5级"}, {"hours": "10时", "wea": "小雨", "wea_img": "yu", "tem": "9", "win": "微风", "win_speed": "4-5级"}, {"hours": "11时", "wea": "小雨", "wea_img": "yu", "tem": "10", "win": "微风", "win_speed": "4-5级"}, {"hours": "12时", "wea": "小雨", "wea_img": "yu", "tem": "10", "win": "微风", "win_speed": "4-5级"}, {"hours": "13时", "wea": "小雨", "wea_img": "yu", "tem": "10", "win": "微风", "win_speed": "4-5级"}, {"hours": "14时", "wea": "小雨", "wea_img": "yu", "tem": "10", "win": "微风", "win_speed": "4-5级"}], "index": [{"title": "紫外线指数", "level": "最弱", "desc": "属弱紫外线辐射天气，无需特别防护。若长期在户外，建议涂擦SPF在8-12之间的防晒护肤品。"}, {"title": "减肥指数", "level": "一颗星", "desc": "雨雪相伴湿冷天，坚持室内低强度运动。"}, {"title": "血糖指数", "level": "不易波动", "desc": "天气条件不易引起血糖波动。"}, {"title": "穿衣指数", "level": "冷", "desc": "天气冷，建议着棉服、羽绒服、皮夹克加羊毛衫等冬季服装。年老体弱者宜着厚棉衣、冬大衣或厚羽绒服。"}, {"title": "洗车指数", "level": "不宜", "desc": "不宜洗车，未来24小时内有雨，如果在此期间洗车，雨水和路上的泥水可能会再次弄脏您的爱车。"}, {"title": "空气污染扩散指数", "level": "良", "desc": "气象条件有利于空气污染物稀释、扩散和清除。"}]}, {"day": "08日（星期一）", "date": "2021-03-08", "week": "星期一", "wea": "小雨", "wea_img": "yu", "wea_day": "小雨", "wea_day_img": "yu", "wea_night": "小雨", "wea_night_img": "yu", "tem": "11℃", "tem1": "11℃", "tem2": "7℃", "humidity": "", "visibility": "", "pressure": "", "win": ["东风", "东风"], "win_speed": "<3级", "win_meter": "", "sunrise": "06:15", "sunset": "17:59", "air": "19", "air_level": "优", "air_tips": "空气很好，可以外出活动，呼吸新鲜空气，拥抱大自然！", "alarm": {"alarm_type": "", "alarm_level": "", "alarm_content": ""}, "hours": [{"hours": "08时", "wea": "多云", "wea_img": "yun", "tem": "7", "win": "微风", "win_speed": "4-5级"}, {"hours": "09时", "wea": "小雨", "wea_img": "yu", "tem": "8", "win": "微风", "win_speed": "4-5级"}, {"hours": "10时", "wea": "小雨", "wea_img": "yu", "tem": "9", "win": "微风", "win_speed": "4-5级"}, {"hours": "11时", "wea": "小雨", "wea_img": "yu", "tem": "10", "win": "微风", "win_speed": "4-5级"}, {"hours": "12时", "wea": "小雨", "wea_img": "yu", "tem": "10", "win": "微风", "win_speed": "4-5级"}, {"hours": "13时", "wea": "小雨", "wea_img": "yu", "tem": "10", "win": "微风", "win_speed": "4-5级"}, {"hours": "14时", "wea": "小雨", "wea_img": "yu", "tem": "10", "win": "微风", "win_speed": "4-5级"}, {"hours": "15时", "wea": "小雨", "wea_img": "yu", "tem": "10", "win": "微风", "win_speed": "4-5级"}, {"hours": "16时", "wea": "小雨", "wea_img": "yu", "tem": "10", "win": "微风", "win_speed": "4-5级"}, {"hours": "17时", "wea": "小雨", "wea_img": "yu", "tem": "10", "win": "微风", "win_speed": "4-5级"}, {"hours": "18时", "wea": "小雨", "wea_img": "yu", "tem": "9", "win": "微风", "win_speed": "4-5级"}, {"hours": "19时", "wea": "小雨", "wea_img": "yu", "tem": "9", "win": "微风", "win_speed": "4-5级"}, {"hours": "20时", "wea": "小雨", "wea_img": "yu", "tem": "8", "win": "微风", "win_speed": "4-5级"}, {"hours": "21时", "wea": "阴", "wea_img": "yin", "tem": "8", "win": "微风", "win_speed": "4-5级"}, {"hours": "22时", "wea": "小雨", "wea_img": "yu", "tem": "8", "win": "微风", "win_speed": "4-5级"}, {"hours": "23时", "wea": "小雨", "wea_img": "yu", "tem": "7", "win": "微风", "win_speed": "4-5级"}], "index": [{"title": "紫外线指数", "level": "最弱", "desc": "属弱紫外线辐射天气，无需特别防护。若长期在户外，建议涂擦SPF在8-12之间的防晒护肤品。"}, {"title": "减肥指数", "level": "一颗星", "desc": "春天快来了，雨天坚持室内运动吧。"}, {"title": "血糖指数", "level": "不易波动", "desc": "天气条件不易引起血糖波动。"}, {"title": "穿衣指数", "level": "较冷", "desc": "建议着厚外套加毛衣等服装。年老体弱者宜着大衣、呢外套加羊毛衫。"}, {"title": "洗车指数", "level": "不宜", "desc": "不宜洗车，未来24小时内有雨，如果在此期间洗车，雨水和路上的泥水可能会再次弄脏您的爱车。"}, {"title": "空气污染扩散指数", "level": "良", "desc": "气象条件有利于空气污染物稀释、扩散和清除。"}]}, {"day": "09日（星期二）", "date": "2021-03-09", "week": "星期二", "wea": "多云", "wea_img": "yun", "wea_day": "多云", "wea_day_img": "yun", "wea_night": "多云", "wea_night_img": "yun", "tem": "11℃", "tem1": "11℃", "tem2": "5℃", "humidity": "", "visibility": "", "pressure": "", "win": ["东北风", "东风"], "win_speed": "<3级", "win_meter": "", "sunrise": "06:14", "sunset": "18:00", "air": "13", "air_level": "优", "air_tips": "空气很好，可以外出活动，呼吸新鲜空气，拥抱大自然！", "alarm": {"alarm_type": "", "alarm_level": "", "alarm_content": ""}, "hours": [{"hours": "00时", "wea": "小雨", "wea_img": "yu", "tem": "7", "win": "微风", "win_speed": "4-5级"}, {"hours": "01时", "wea": "小雨", "wea_img": "yu", "tem": "7", "win": "微风", "win_speed": "4-5级"}, {"hours": "02时", "wea": "小雨", "wea_img": "yu", "tem": "7", "win": "微风", "win_speed": "4-5级"}, {"hours": "03时", "wea": "小雨", "wea_img": "yu", "tem": "7", "win": "微风", "win_speed": "4-5级"}, {"hours": "04时", "wea": "小雨", "wea_img": "yu", "tem": "7", "win": "微风", "win_speed": "4-5级"}, {"hours": "05时", "wea": "小雨", "wea_img": "yu", "tem": "7", "win": "微风", "win_speed": "4-5级"}, {"hours": "06时", "wea": "小雨", "wea_img": "yu", "tem": "7", "win": "微风", "win_speed": "4-5级"}, {"hours": "07时", "wea": "小雨", "wea_img": "yu", "tem": "7", "win": "微风", "win_speed": "4-5级"}, {"hours": "08时", "wea": "小雨", "wea_img": "yu", "tem": "8", "win": "微风", "win_speed": "4-5级"}, {"hours": "09时", "wea": "阴", "wea_img": "yin", "tem": "8", "win": "微风", "win_speed": "4-5级"}, {"hours": "10时", "wea": "阴", "wea_img": "yin", "tem": "8", "win": "微风", "win_speed": "3-4级"}, {"hours": "11时", "wea": "多云", "wea_img": "yun", "tem": "9", "win": "微风", "win_speed": "3-4级"}, {"hours": "12时", "wea": "多云", "wea_img": "yun", "tem": "9", "win": "微风", "win_speed": "3-4级"}, {"hours": "13时", "wea": "多云", "wea_img": "yun", "tem": "10", "win": "微风", "win_speed": "3-4级"}, {"hours": "14时", "wea": "多云", "wea_img": "yun", "tem": "10", "win": "微风", "win_speed": "3-4级"}, {"hours": "15时", "wea": "多云", "wea_img": "yun", "tem": "10", "win": "微风", "win_speed": "3-4级"}, {"hours": "16时", "wea": "多云", "wea_img": "yun", "tem": "10", "win": "微风", "win_speed": "3-4级"}, {"hours": "17时", "wea": "多云", "wea_img": "yun", "tem": "10", "win": "微风", "win_speed": "3-4级"}, {"hours": "18时", "wea": "多云", "wea_img": "yun", "tem": "9", "win": "微风", "win_speed": "3-4级"}, {"hours": "19时", "wea": "多云", "wea_img": "yun", "tem": "9", "win": "微风", "win_speed": "3-4级"}, {"hours": "20时", "wea": "多云", "wea_img": "yun", "tem": "8", "win": "微风", "win_speed": "3-4级"}, {"hours": "21时", "wea": "多云", "wea_img": "yun", "tem": "7", "win": "微风", "win_speed": "3-4级"}, {"hours": "22时", "wea": "多云", "wea_img": "yun", "tem": "7", "win": "微风", "win_speed": "4-5级"}, {"hours": "23时", "wea": "多云", "wea_img": "yun", "tem": "7", "win": "微风", "win_speed": "4-5级"}], "index": [{"title": "紫外线指数", "level": "弱", "desc": "紫外线强度较弱，建议涂擦SPF在12-15之间、PA 的防晒护肤品。"}, {"title": "减肥指数", "level": "三颗星", "desc": "春天不减肥，夏天徒伤悲。天气较舒适，快去运动吧。"}, {"title": "血糖指数", "level": "不易波动", "desc": "天气条件好，血糖不易波动，可适时进行户外锻炼。"}, {"title": "穿衣指数", "level": "较冷", "desc": "建议着厚外套加毛衣等服装。年老体弱者宜着大衣、呢外套加羊毛衫。"}, {"title": "洗车指数", "level": "较不宜", "desc": "较不宜洗车，路面少量积水，如果执意擦洗汽车，要做好溅上泥水的心理准备。"}, {"title": "空气污染扩散指数", "level": "中", "desc": "气象条件对空气污染物稀释、扩散和清除无明显影响。"}]}, {"day": "10日（星期三）", "date": "2021-03-10", "week": "星期三", "wea": "晴转小雨", "wea_img": "yu", "wea_day": "晴", "wea_day_img": "qing", "wea_night": "小雨", "wea_night_img": "yu", "tem": "15℃", "tem1": "15℃", "tem2": "10℃", "humidity": "", "visibility": "", "pressure": "", "win": ["东风", "东南风"], "win_speed": "<3级", "win_meter": "", "sunrise": "06:13", "sunset": "18:01", "air": "27", "air_level": "优", "air_tips": "空气很好，可以外出活动，呼吸新鲜空气，拥抱大自然！", "alarm": {"alarm_type": "", "alarm_level": "", "alarm_content": ""}, "hours": [{"hours": "00时", "wea": "多云", "wea_img": "yun", "tem": "6", "win": "微风", "win_speed": "4-5级"}, {"hours": "01时", "wea": "多云", "wea_img": "yun", "tem": "6", "win": "微风", "win_speed": "3-4级"}, {"hours": "02时", "wea": "多云", "wea_img": "yun", "tem": "6", "win": "微风", "win_speed": "4-5级"}, {"hours": "03时", "wea": "多云", "wea_img": "yun", "tem": "6", "win": "微风", "win_speed": "3-4级"}, {"hours": "04时", "wea": "多云", "wea_img": "yun", "tem": "5", "win": "微风", "win_speed": "3-4级"}, {"hours": "05时", "wea": "晴", "wea_img": "qing", "tem": "5", "win": "微风", "win_speed": "4-5级"}, {"hours": "06时", "wea": "多云", "wea_img": "yun", "tem": "6", "win": "微风", "win_speed": "3-4级"}, {"hours": "07时", "wea": "多云", "wea_img": "yun", "tem": "6", "win": "微风", "win_speed": "4-5级"}, {"hours": "08时", "wea": "多云", "wea_img": "yun", "tem": "7", "win": "微风", "win_speed": "4-5级"}, {"hours": "11时", "wea": "多云", "wea_img": "yun", "tem": "11", "win": "微风", "win_speed": "4-5级"}, {"hours": "14时", "wea": "晴", "wea_img": "qing", "tem": "15", "win": "微风", "win_speed": "4-5级"}, {"hours": "17时", "wea": "晴", "wea_img": "qing", "tem": "13", "win": "微风", "win_speed": "4-5级"}, {"hours": "20时", "wea": "晴", "wea_img": "qing", "tem": "11", "win": "微风", "win_speed": "4-5级"}, {"hours": "23时", "wea": "多云", "wea_img": "yun", "tem": "11", "win": "微风", "win_speed": "5-6级"}], "index": [{"title": "紫外线指数", "level": "强", "desc": "紫外线辐射强，建议涂擦SPF20左右、PA  的防晒护肤品。避免在10点至14点暴露于日光下。"}, {"title": "减肥指数", "level": "三颗星", "desc": "春天不减肥，夏天徒伤悲。天气较舒适，快去运动吧。"}, {"title": "血糖指数", "level": "易波动", "desc": "气温多变，血糖易波动，请注意监测。"}, {"title": "穿衣指数", "level": "较冷", "desc": "建议着厚外套加毛衣等服装。年老体弱者宜着大衣、呢外套加羊毛衫。"}, {"title": "洗车指数", "level": "不宜", "desc": "不宜洗车，未来24小时内有雨，如果在此期间洗车，雨水和路上的泥水可能会再次弄脏您的爱车。"}, {"title": "空气污染扩散指数", "level": "中", "desc": "气象条件对空气污染物稀释、扩散和清除无明显影响。"}]}, {"day": "11日（星期四）", "date": "2021-03-11", "week": "星期四", "wea": "小雨转阴", "wea_img": "yu", "wea_day": "小雨", "wea_day_img": "yu", "wea_night": "阴", "wea_night_img": "yin", "tem": "12℃", "tem1": "12℃", "tem2": "9℃", "humidity": "", "visibility": "", "pressure": "", "win": ["东南风", "东风"], "win_speed": "<3级", "win_meter": "", "sunrise": "06:12", "sunset": "18:02", "air": "24", "air_level": "优", "air_tips": "空气很好，可以外出活动，呼吸新鲜空气，拥抱大自然！", "alarm": {"alarm_type": "", "alarm_level": "", "alarm_content": ""}, "hours": [{"hours": "02时", "wea": "阴", "wea_img": "yin", "tem": "11", "win": "微风", "win_speed": "5-6级"}, {"hours": "05时", "wea": "小雨", "wea_img": "yu", "tem": "11", "win": "微风", "win_speed": "5-6级"}, {"hours": "08时", "wea": "小雨", "wea_img": "yu", "tem": "11", "win": "微风", "win_speed": "5-6级"}, {"hours": "11时", "wea": "小雨", "wea_img": "yu", "tem": "11", "win": "微风", "win_speed": "5-6级"}, {"hours": "14时", "wea": "小雨", "wea_img": "yu", "tem": "11", "win": "微风", "win_speed": "5-6级"}, {"hours": "17时", "wea": "小雨", "wea_img": "yu", "tem": "11", "win": "微风", "win_speed": "5-6级"}, {"hours": "20时", "wea": "小雨", "wea_img": "yu", "tem": "11", "win": "微风", "win_speed": "5-6级"}, {"hours": "23时", "wea": "阴", "wea_img": "yin", "tem": "10", "win": "微风", "win_speed": "4-5级"}], "index": [{"title": "紫外线指数", "level": "最弱", "desc": "属弱紫外线辐射天气，无需特别防护。若长期在户外，建议涂擦SPF在8-12之间的防晒护肤品。"}, {"title": "减肥指数", "level": "一颗星", "desc": "春天快来了，雨天坚持室内运动吧。"}, {"title": "血糖指数", "level": "不易波动", "desc": "天气条件不易引起血糖波动。"}, {"title": "穿衣指数", "level": "较冷", "desc": "建议着厚外套加毛衣等服装。年老体弱者宜着大衣、呢外套加羊毛衫。"}, {"title": "洗车指数", "level": "不宜", "desc": "不宜洗车，未来24小时内有雨，如果在此期间洗车，雨水和路上的泥水可能会再次弄脏您的爱车。"}, {"title": "空气污染扩散指数", "level": "良", "desc": "气象条件有利于空气污染物稀释、扩散和清除。"}]}, {"day": "12日（星期五）", "date": "2021-03-12", "week": "星期五", "wea": "多云转阴", "wea_img": "yun", "wea_day": "多云", "wea_day_img": "yun", "wea_night": "阴", "wea_night_img": "yin", "tem": "14℃", "tem1": "14℃", "tem2": "10℃", "humidity": "", "visibility": "", "pressure": "", "win": ["东北风", "北风"], "win_speed": "<3级", "win_meter": "", "sunrise": "06:10", "sunset": "18:02", "air": "", "air_level": "优", "air_tips": "空气很好，可以外出活动，呼吸新鲜空气，拥抱大自然！", "alarm": {"alarm_type": "", "alarm_level": "", "alarm_content": ""}, "hours": [{"hours": "02时", "wea": "阴", "wea_img": "yin", "tem": "10", "win": "微风", "win_speed": "4-5级"}, {"hours": "05时", "wea": "阴", "wea_img": "yin", "tem": "10", "win": "微风", "win_speed": "4-5级"}, {"hours": "08时", "wea": "多云", "wea_img": "yun", "tem": "10", "win": "微风", "win_speed": "4-5级"}, {"hours": "11时", "wea": "多云", "wea_img": "yun", "tem": "12", "win": "微风", "win_speed": "3-4级"}, {"hours": "14时", "wea": "多云", "wea_img": "yun", "tem": "14", "win": "微风", "win_speed": "3-4级"}, {"hours": "17时", "wea": "多云", "wea_img": "yun", "tem": "13", "win": "微风", "win_speed": "3-4级"}, {"hours": "20时", "wea": "晴", "wea_img": "qing", "tem": "12", "win": "微风", "win_speed": "3-4级"}, {"hours": "23时", "wea": "多云", "wea_img": "yun", "tem": "12", "win": "微风", "win_speed": "3-4级"}], "index": [{"title": "紫外线指数", "level": "中等", "desc": "属中等强度紫外线辐射天气，建议涂擦SPF高于15、PA 的防晒护肤品，戴帽子、太阳镜。"}, {"title": "减肥指数", "level": "三颗星", "desc": "春天不减肥，夏天徒伤悲。天气较舒适，快去运动吧。"}, {"title": "血糖指数", "level": "不易波动", "desc": "天气条件好，血糖不易波动，可适时进行户外锻炼。"}, {"title": "穿衣指数", "level": "较冷", "desc": "建议着厚外套加毛衣等服装。年老体弱者宜着大衣、呢外套加羊毛衫。"}, {"title": "洗车指数", "level": "较不宜", "desc": "较不宜洗车，路面少量积水，如果执意擦洗汽车，要做好溅上泥水的心理准备。"}, {"title": "空气污染扩散指数", "level": "中", "desc": "气象条件对空气污染物稀释、扩散和清除无明显影响。"}]}, {"day": "13日（星期六）", "date": "2021-03-13", "week": "星期六", "wea": "多云", "wea_img": "yun", "wea_day": "多云", "wea_day_img": "yun", "wea_night": "多云", "wea_night_img": "yun", "tem": "16℃", "tem1": "16℃", "tem2": "10℃", "humidity": "", "visibility": "", "pressure": "", "win": ["北风", "北风"], "win_speed": "<3级", "win_meter": "", "sunrise": "06:09", "sunset": "18:03", "air": "", "air_level": "优", "air_tips": "空气很好，可以外出活动，呼吸新鲜空气，拥抱大自然！", "alarm": {"alarm_type": "", "alarm_level": "", "alarm_content": ""}, "hours": [{"hours": "02时", "wea": "阴", "wea_img": "yin", "tem": "11", "win": "微风", "win_speed": "10-11级"}, {"hours": "05时", "wea": "阴", "wea_img": "yin", "tem": "11", "win": "微风", "win_speed": "10-11级"}, {"hours": "08时", "wea": "阴", "wea_img": "yin", "tem": "12", "win": "微风", "win_speed": "10-11级"}, {"hours": "11时", "wea": "阴", "wea_img": "yin", "tem": "13", "win": "微风", "win_speed": "10-11级"}, {"hours": "14时", "wea": "多云", "wea_img": "yun", "tem": "15", "win": "微风", "win_speed": "10-11级"}, {"hours": "17时", "wea": "多云", "wea_img": "yun", "tem": "13", "win": "微风", "win_speed": "10-11级"}, {"hours": "20时", "wea": "多云", "wea_img": "yun", "tem": "11", "win": "微风", "win_speed": "10-11级"}, {"hours": "23时", "wea": "多云", "wea_img": "yun", "tem": "11", "win": "微风", "win_speed": "10-11级"}], "index": [{"title": "紫外线指数", "level": "弱", "desc": "紫外线强度较弱，建议涂擦SPF在12-15之间、PA 的防晒护肤品。"}, {"title": "减肥指数", "level": "三颗星", "desc": "春天不减肥，夏天徒伤悲。天气较舒适，快去运动吧。"}, {"title": "血糖指数", "level": "不易波动", "desc": "天气条件好，血糖不易波动，可适时进行户外锻炼。"}, {"title": "穿衣指数", "level": "较冷", "desc": "建议着厚外套加毛衣等服装。年老体弱者宜着大衣、呢外套加羊毛衫。"}, {"title": "洗车指数", "level": "适宜", "desc": "适宜洗车，未来持续两天无雨天气较好，适合擦洗汽车，蓝天白云、风和日丽将伴您的车子连日洁净。"}, {"title": "空气污染扩散指数", "level": "中", "desc": "气象条件对空气污染物稀释、扩散和清除无明显影响。"}]}]}